{
"type": "FeatureCollection",
"name": "points_7220_ranked",
"features": [
{ "type": "Feature", "properties": { "point_id": 21.0, "name": "Nieuwenhove", "system_type": "unknown", "code_orig": "7220,gh", "type": "7220", "certain": false, "unit_id": 34.0, "grts_address": 1080377.0, "grts_rank": 1.0, "haspengouw": false, "grts_rank_haspengouw": null, "area_m2": null, "year": null, "in_sac": true, "source": "inbo" }, "geometry": { "type": "Point", "coordinates": [ 3.9784535, 50.7907979 ] } },
{ "type": "Feature", "properties": { "point_id": 79.0, "name": "Galmaarden 1", "system_type": "rivulet", "code_orig": "7220", "type": "7220", "certain": true, "unit_id": 30.0, "grts_address": 5500121.0, "grts_rank": 2.0, "haspengouw": false, "grts_rank_haspengouw": null, "area_m2": 150.0, "year": 2014.0, "in_sac": true, "source": "kalktufproject" }, "geometry": { "type": "Point", "coordinates": [ 3.9413906, 50.7622864 ] } },
{ "type": "Feature", "properties": { "point_id": 80.0, "name": "Galmaarden 2", "system_type": "rivulet", "code_orig": "7220", "type": "7220", "certain": true, "unit_id": 30.0, "grts_address": 5500121.0, "grts_rank": 2.0, "haspengouw": false, "grts_rank_haspengouw": null, "area_m2": 150.0, "year": 2014.0, "in_sac": true, "source": "kalktufproject" }, "geometry": { "type": "Point", "coordinates": [ 3.9409292, 50.7623351 ] } },
{ "type": "Feature", "properties": { "point_id": 71.0, "name": "Molenbeemd", "system_type": "rivulet", "code_orig": "7220", "type": "7220", "certain": true, "unit_id": 26.0, "grts_address": 6560882.0, "grts_rank": 3.0, "haspengouw": true, "grts_rank_haspengouw": 1, "area_m2": 20.0, "year": 2014.0, "in_sac": false, "source": "kalktufproject" }, "geometry": { "type": "Point", "coordinates": [ 5.5163576, 50.8210239 ] } },
{ "type": "Feature", "properties": { "point_id": 56.0, "name": "Meise 1", "system_type": "mire", "code_orig": "7220", "type": "7220", "certain": true, "unit_id": 19.0, "grts_address": 7145593.0, "grts_rank": 4.0, "haspengouw": false, "grts_rank_haspengouw": null, "area_m2": 150.0, "year": 2014.0, "in_sac": false, "source": "kalktufproject" }, "geometry": { "type": "Point", "coordinates": [ 4.3206899, 50.926153 ] } },
{ "type": "Feature", "properties": { "point_id": 57.0, "name": "Meise 2", "system_type": "mire", "code_orig": "7220", "type": "7220", "certain": true, "unit_id": 19.0, "grts_address": 7145593.0, "grts_rank": 4.0, "haspengouw": false, "grts_rank_haspengouw": null, "area_m2": 50.0, "year": 2014.0, "in_sac": false, "source": "kalktufproject" }, "geometry": { "type": "Point", "coordinates": [ 4.3227189, 50.9278874 ] } },
{ "type": "Feature", "properties": { "point_id": 97.0, "name": null, "system_type": "unknown", "code_orig": "7220,gh", "type": "7220", "certain": false, "unit_id": 49.0, "grts_address": 9549529.0, "grts_rank": 5.0, "haspengouw": false, "grts_rank_haspengouw": null, "area_m2": null, "year": null, "in_sac": false, "source": "habkaart" }, "geometry": { "type": "Point", "coordinates": [ 3.8553092, 50.7548358 ] } },
{ "type": "Feature", "properties": { "point_id": 5.0, "name": "Remersdaal 1", "system_type": "rivulet", "code_orig": "7220", "type": "7220", "certain": true, "unit_id": 2.0, "grts_address": 10645378.0, "grts_rank": 6.0, "haspengouw": false, "grts_rank_haspengouw": null, "area_m2": 200.0, "year": 2014.0, "in_sac": true, "source": "kalktufproject" }, "geometry": { "type": "Point", "coordinates": [ 5.9025649, 50.735567 ] } },
{ "type": "Feature", "properties": { "point_id": 6.0, "name": "Remersdaal 2", "system_type": "rivulet", "code_orig": "7220", "type": "7220", "certain": true, "unit_id": 2.0, "grts_address": 10645378.0, "grts_rank": 6.0, "haspengouw": false, "grts_rank_haspengouw": null, "area_m2": 500.0, "year": 2014.0, "in_sac": true, "source": "kalktufproject" }, "geometry": { "type": "Point", "coordinates": [ 5.9040286, 50.7355681 ] } },
{ "type": "Feature", "properties": { "point_id": 58.0, "name": "Hornebeek", "system_type": "rivulet", "code_orig": "7220", "type": "7220", "certain": true, "unit_id": 20.0, "grts_address": 11971110.0, "grts_rank": 7.0, "haspengouw": true, "grts_rank_haspengouw": 2, "area_m2": 100.0, "year": 2014.0, "in_sac": false, "source": "kalktufproject" }, "geometry": { "type": "Point", "coordinates": [ 5.2384528, 50.7216672 ] } },
{ "type": "Feature", "properties": { "point_id": 102.0, "name": null, "system_type": "unknown", "code_orig": "7220,gh", "type": "7220", "certain": false, "unit_id": 53.0, "grts_address": 12686521.0, "grts_rank": 8.0, "haspengouw": false, "grts_rank_haspengouw": null, "area_m2": null, "year": null, "in_sac": false, "source": "habkaart" }, "geometry": { "type": "Point", "coordinates": [ 4.2872162, 50.7118851 ] } },
{ "type": "Feature", "properties": { "point_id": 90.0, "name": "Maasdalbos", "system_type": "unknown", "code_orig": "7220,gh", "type": "7220", "certain": false, "unit_id": 44.0, "grts_address": 15639737.0, "grts_rank": 9.0, "haspengouw": false, "grts_rank_haspengouw": null, "area_m2": null, "year": null, "in_sac": false, "source": "kalktufproject" }, "geometry": { "type": "Point", "coordinates": [ 4.252525, 50.710055 ] } },
{ "type": "Feature", "properties": { "point_id": 61.0, "name": "Fonteinbeek", "system_type": "rivulet", "code_orig": "7220", "type": "7220", "certain": true, "unit_id": 21.0, "grts_address": 16848710.0, "grts_rank": 10.0, "haspengouw": false, "grts_rank_haspengouw": null, "area_m2": 10.0, "year": 2014.0, "in_sac": false, "source": "kalktufproject" }, "geometry": { "type": "Point", "coordinates": [ 4.8444083, 50.8099866 ] } },
{ "type": "Feature", "properties": { "point_id": 14.0, "name": "Fonteinbos 2", "system_type": "unknown", "code_orig": "7220", "type": "7220", "certain": true, "unit_id": 6.0, "grts_address": 19382809.0, "grts_rank": 11.0, "haspengouw": false, "grts_rank_haspengouw": null, "area_m2": 20.0, "year": 2014.0, "in_sac": true, "source": "kalktufproject" }, "geometry": { "type": "Point", "coordinates": [ 3.5619183, 50.7708667 ] } },
{ "type": "Feature", "properties": { "point_id": 32.0, "name": "Wijngaardbos 1", "system_type": "rivulet", "code_orig": "7220", "type": "7220", "certain": true, "unit_id": 16.0, "grts_address": 22269042.0, "grts_rank": 12.0, "haspengouw": true, "grts_rank_haspengouw": 3, "area_m2": 200.0, "year": 2014.0, "in_sac": true, "source": "kalktufproject" }, "geometry": { "type": "Point", "coordinates": [ 5.4758737, 50.8171063 ] } },
{ "type": "Feature", "properties": { "point_id": 83.0, "name": "Wijngaardbos 2", "system_type": "rivulet", "code_orig": "7220", "type": "7220", "certain": true, "unit_id": 16.0, "grts_address": 22269042.0, "grts_rank": 12.0, "haspengouw": true, "grts_rank_haspengouw": 3, "area_m2": 100.0, "year": 2014.0, "in_sac": true, "source": "kalktufproject" }, "geometry": { "type": "Point", "coordinates": [ 5.4808115, 50.8167466 ] } },
{ "type": "Feature", "properties": { "point_id": 24.0, "name": "Margijsbos", "system_type": "unknown", "code_orig": "7220,gh", "type": "7220", "certain": false, "unit_id": 36.0, "grts_address": 22379782.0, "grts_rank": 13.0, "haspengouw": false, "grts_rank_haspengouw": null, "area_m2": null, "year": null, "in_sac": true, "source": "inbo" }, "geometry": { "type": "Point", "coordinates": [ 4.6029644, 50.7964405 ] } },
{ "type": "Feature", "properties": { "point_id": 92.0, "name": "Hoeselt", "system_type": "mire", "code_orig": "7220", "type": "7220", "certain": true, "unit_id": 31.0, "grts_address": 23809138.0, "grts_rank": 14.0, "haspengouw": true, "grts_rank_haspengouw": 4, "area_m2": 100.0, "year": 2017.0, "in_sac": false, "source": "habkaart" }, "geometry": { "type": "Point", "coordinates": [ 5.4775467, 50.8252914 ] } },
{ "type": "Feature", "properties": { "point_id": 94.0, "name": null, "system_type": "unknown", "code_orig": "7220,gh", "type": "7220", "certain": false, "unit_id": 46.0, "grts_address": 24794265.0, "grts_rank": 15.0, "haspengouw": false, "grts_rank_haspengouw": null, "area_m2": null, "year": null, "in_sac": false, "source": "habkaart" }, "geometry": { "type": "Point", "coordinates": [ 3.6411035, 50.8361947 ] } },
{ "type": "Feature", "properties": { "point_id": 7.0, "name": "Kesterbeek", "system_type": "unknown", "code_orig": "7220,gh", "type": "7220", "certain": false, "unit_id": 32.0, "grts_address": 25698233.0, "grts_rank": 16.0, "haspengouw": false, "grts_rank_haspengouw": null, "area_m2": null, "year": null, "in_sac": true, "source": "anb" }, "geometry": { "type": "Point", "coordinates": [ 4.3084522, 50.7513556 ] } },
{ "type": "Feature", "properties": { "point_id": 99.0, "name": null, "system_type": "unknown", "code_orig": "7220,gh", "type": "7220", "certain": false, "unit_id": 50.0, "grts_address": 26432025.0, "grts_rank": 17.0, "haspengouw": false, "grts_rank_haspengouw": null, "area_m2": null, "year": null, "in_sac": false, "source": "habkaart" }, "geometry": { "type": "Point", "coordinates": [ 3.5872409, 50.7887517 ] } },
{ "type": "Feature", "properties": { "point_id": 101.0, "name": null, "system_type": "unknown", "code_orig": "7220,gh", "type": "7220", "certain": false, "unit_id": 52.0, "grts_address": 26568306.0, "grts_rank": 18.0, "haspengouw": true, "grts_rank_haspengouw": 5, "area_m2": null, "year": null, "in_sac": false, "source": "habkaart" }, "geometry": { "type": "Point", "coordinates": [ 5.4052919, 50.7954385 ] } },
{ "type": "Feature", "properties": { "point_id": 9.0, "name": "Bois de Bilande", "system_type": "rivulet", "code_orig": "7220", "type": "7220", "certain": true, "unit_id": 4.0, "grts_address": 28701702.0, "grts_rank": 19.0, "haspengouw": false, "grts_rank_haspengouw": null, "area_m2": 50.0, "year": 2014.0, "in_sac": true, "source": "kalktufproject" }, "geometry": { "type": "Point", "coordinates": [ 4.5772421, 50.7547578 ] } },
{ "type": "Feature", "properties": { "point_id": 17.0, "name": "Watermolenbos", "system_type": "unknown", "code_orig": "7220,gh", "type": "7220", "certain": false, "unit_id": 33.0, "grts_address": 28770841.0, "grts_rank": 20.0, "haspengouw": false, "grts_rank_haspengouw": null, "area_m2": null, "year": null, "in_sac": true, "source": "inbo" }, "geometry": { "type": "Point", "coordinates": [ 3.5449352, 50.7747759 ] } },
{ "type": "Feature", "properties": { "point_id": 38.0, "name": "Vallenbos", "system_type": "unknown", "code_orig": "7220,gh", "type": "7220", "certain": false, "unit_id": 38.0, "grts_address": 30773881.0, "grts_rank": 21.0, "haspengouw": false, "grts_rank_haspengouw": null, "area_m2": null, "year": null, "in_sac": true, "source": "inbo" }, "geometry": { "type": "Point", "coordinates": [ 4.2592726, 50.8516067 ] } },
{ "type": "Feature", "properties": { "point_id": 44.0, "name": "Zwalm", "system_type": "unknown", "code_orig": "7220,gh", "type": "7220", "certain": false, "unit_id": 39.0, "grts_address": 31870041.0, "grts_rank": 22.0, "haspengouw": false, "grts_rank_haspengouw": null, "area_m2": null, "year": null, "in_sac": true, "source": "inbo" }, "geometry": { "type": "Point", "coordinates": [ 3.7529269, 50.8724012 ] } },
{ "type": "Feature", "properties": { "point_id": 35.0, "name": "Boterhoek 1", "system_type": "rivulet", "code_orig": "7220", "type": "7220", "certain": true, "unit_id": 17.0, "grts_address": 32069721.0, "grts_rank": 23.0, "haspengouw": false, "grts_rank_haspengouw": null, "area_m2": 50.0, "year": 2014.0, "in_sac": true, "source": "kalktufproject" }, "geometry": { "type": "Point", "coordinates": [ 3.7758523, 50.8379 ] } },
{ "type": "Feature", "properties": { "point_id": 75.0, "name": "Mabroek", "system_type": "rivulet", "code_orig": "7220", "type": "7220", "certain": true, "unit_id": 29.0, "grts_address": 32243586.0, "grts_rank": 24.0, "haspengouw": false, "grts_rank_haspengouw": null, "area_m2": 10.0, "year": 2014.0, "in_sac": false, "source": "kalktufproject" }, "geometry": { "type": "Point", "coordinates": [ 5.9012548, 50.7274686 ] } },
{ "type": "Feature", "properties": { "point_id": 10.0, "name": "KwintenHolleWeg", "system_type": "mire", "code_orig": "7220", "type": "7220", "certain": true, "unit_id": 5.0, "grts_address": 32277378.0, "grts_rank": 25.0, "haspengouw": false, "grts_rank_haspengouw": null, "area_m2": 10.0, "year": 2014.0, "in_sac": true, "source": "kalktufproject" }, "geometry": { "type": "Point", "coordinates": [ 5.8176321, 50.750045 ] } },
{ "type": "Feature", "properties": { "point_id": 8.0, "name": "Krindaal", "system_type": "rivulet", "code_orig": "7220", "type": "7220", "certain": true, "unit_id": 3.0, "grts_address": 35079042.0, "grts_rank": 26.0, "haspengouw": false, "grts_rank_haspengouw": null, "area_m2": 800.0, "year": 2014.0, "in_sac": true, "source": "kalktufproject" }, "geometry": { "type": "Point", "coordinates": [ 5.8320205, 50.745719 ] } },
{ "type": "Feature", "properties": { "point_id": 104.0, "name": "Krindaal 2", "system_type": "rivulet", "code_orig": "7220", "type": "7220", "certain": true, "unit_id": 3.0, "grts_address": 35079042.0, "grts_rank": 26.0, "haspengouw": false, "grts_rank_haspengouw": null, "area_m2": 100.0, "year": 2014.0, "in_sac": true, "source": "kalktufproject" }, "geometry": { "type": "Point", "coordinates": [ 5.832216, 50.745716 ] } },
{ "type": "Feature", "properties": { "point_id": 27.0, "name": "Borgloon", "system_type": "rivulet", "code_orig": "7220", "type": "7220", "certain": true, "unit_id": 12.0, "grts_address": 35937906.0, "grts_rank": 27.0, "haspengouw": true, "grts_rank_haspengouw": 6, "area_m2": 50.0, "year": 2014.0, "in_sac": true, "source": "kalktufproject" }, "geometry": { "type": "Point", "coordinates": [ 5.351446, 50.8065654 ] } },
{ "type": "Feature", "properties": { "point_id": 15.0, "name": "Noorbeek", "system_type": "mire", "code_orig": "7220", "type": "7220", "certain": true, "unit_id": 7.0, "grts_address": 37281202.0, "grts_rank": 28.0, "haspengouw": false, "grts_rank_haspengouw": null, "area_m2": 900.0, "year": 2014.0, "in_sac": true, "source": "kalktufproject" }, "geometry": { "type": "Point", "coordinates": [ 5.7980832, 50.7651284 ] } },
{ "type": "Feature", "properties": { "point_id": 16.0, "name": "Feelbos 1", "system_type": "rivulet", "code_orig": "7220", "type": "7220", "certain": true, "unit_id": 8.0, "grts_address": 37375513.0, "grts_rank": 29.0, "haspengouw": false, "grts_rank_haspengouw": null, "area_m2": 130.0, "year": 2014.0, "in_sac": true, "source": "kalktufproject" }, "geometry": { "type": "Point", "coordinates": [ 3.5379533, 50.7719859 ] } },
{ "type": "Feature", "properties": { "point_id": 98.0, "name": "Feelbos 2", "system_type": "unknown", "code_orig": "7220,gh", "type": "7220", "certain": false, "unit_id": 8.0, "grts_address": 37375513.0, "grts_rank": 29.0, "haspengouw": false, "grts_rank_haspengouw": null, "area_m2": null, "year": null, "in_sac": false, "source": "habkaart" }, "geometry": { "type": "Point", "coordinates": [ 3.5385645, 50.7687738 ] } },
{ "type": "Feature", "properties": { "point_id": 30.0, "name": "Zammelen", "system_type": "mire", "code_orig": "7220", "type": "7220", "certain": true, "unit_id": 14.0, "grts_address": 37852786.0, "grts_rank": 30.0, "haspengouw": true, "grts_rank_haspengouw": 7, "area_m2": 50.0, "year": 2014.0, "in_sac": true, "source": "kalktufproject" }, "geometry": { "type": "Point", "coordinates": [ 5.4040874, 50.8131411 ] } },
{ "type": "Feature", "properties": { "point_id": 89.0, "name": "Begijnenbos", "system_type": "unknown", "code_orig": "7220,gh", "type": "7220", "certain": false, "unit_id": 43.0, "grts_address": 40288185.0, "grts_rank": 31.0, "haspengouw": false, "grts_rank_haspengouw": null, "area_m2": null, "year": null, "in_sac": true, "source": "kalktufproject" }, "geometry": { "type": "Point", "coordinates": [ 4.3020639, 50.7398785 ] } },
{ "type": "Feature", "properties": { "point_id": 22.0, "name": "Elenebos", "system_type": "unknown", "code_orig": "7220,gh", "type": "7220", "certain": false, "unit_id": 35.0, "grts_address": 41144857.0, "grts_rank": 32.0, "haspengouw": false, "grts_rank_haspengouw": null, "area_m2": null, "year": null, "in_sac": true, "source": "inbo" }, "geometry": { "type": "Point", "coordinates": [ 3.575218, 50.7920503 ] } },
{ "type": "Feature", "properties": { "point_id": 31.0, "name": "Zoet Water 2", "system_type": "mire", "code_orig": "7220", "type": "7220", "certain": true, "unit_id": 15.0, "grts_address": 41924166.0, "grts_rank": 33.0, "haspengouw": false, "grts_rank_haspengouw": null, "area_m2": 200.0, "year": 2014.0, "in_sac": true, "source": "kalktufproject" }, "geometry": { "type": "Point", "coordinates": [ 4.6564796, 50.8214077 ] } },
{ "type": "Feature", "properties": { "point_id": 28.0, "name": "Grootbos", "system_type": "rivulet", "code_orig": "7220", "type": "7220", "certain": true, "unit_id": 13.0, "grts_address": 44945522.0, "grts_rank": 34.0, "haspengouw": true, "grts_rank_haspengouw": 8, "area_m2": 30.0, "year": 2014.0, "in_sac": true, "source": "kalktufproject" }, "geometry": { "type": "Point", "coordinates": [ 5.54892, 50.8094526 ] } },
{ "type": "Feature", "properties": { "point_id": 95.0, "name": null, "system_type": "unknown", "code_orig": "7220,gh", "type": "7220", "certain": false, "unit_id": 47.0, "grts_address": 46486969.0, "grts_rank": 35.0, "haspengouw": false, "grts_rank_haspengouw": null, "area_m2": null, "year": null, "in_sac": false, "source": "habkaart" }, "geometry": { "type": "Point", "coordinates": [ 4.2132857, 50.7830679 ] } },
{ "type": "Feature", "properties": { "point_id": 66.0, "name": "Overijse Fluxys", "system_type": "rivulet", "code_orig": "7220", "type": "7220", "certain": true, "unit_id": 22.0, "grts_address": 46521094.0, "grts_rank": 36.0, "haspengouw": false, "grts_rank_haspengouw": null, "area_m2": 10.0, "year": 2014.0, "in_sac": false, "source": "kalktufproject" }, "geometry": { "type": "Point", "coordinates": [ 4.512619, 50.7318744 ] } },
{ "type": "Feature", "properties": { "point_id": 23.0, "name": "Haren", "system_type": "rivulet", "code_orig": "7220", "type": "7220", "certain": true, "unit_id": 11.0, "grts_address": 48095858.0, "grts_rank": 37.0, "haspengouw": true, "grts_rank_haspengouw": 9, "area_m2": 10.0, "year": 2014.0, "in_sac": true, "source": "kalktufproject" }, "geometry": { "type": "Point", "coordinates": [ 5.4038378, 50.7914714 ] } },
{ "type": "Feature", "properties": { "point_id": 100.0, "name": null, "system_type": "unknown", "code_orig": "7220,gh", "type": "7220", "certain": false, "unit_id": 51.0, "grts_address": 48457497.0, "grts_rank": 38.0, "haspengouw": false, "grts_rank_haspengouw": null, "area_m2": null, "year": null, "in_sac": false, "source": "habkaart" }, "geometry": { "type": "Point", "coordinates": [ 3.6371136, 50.7384927 ] } },
{ "type": "Feature", "properties": { "point_id": 72.0, "name": "Kwinten", "system_type": "rivulet", "code_orig": "7220", "type": "7220", "certain": true, "unit_id": 27.0, "grts_address": 48989058.0, "grts_rank": 39.0, "haspengouw": false, "grts_rank_haspengouw": null, "area_m2": 100.0, "year": 2014.0, "in_sac": true, "source": "kalktufproject" }, "geometry": { "type": "Point", "coordinates": [ 5.8125166, 50.7513399 ] } },
{ "type": "Feature", "properties": { "point_id": 73.0, "name": "Mater-Kerkgate", "system_type": "mire", "code_orig": "7220", "type": "7220", "certain": true, "unit_id": 28.0, "grts_address": 50014361.0, "grts_rank": 40.0, "haspengouw": false, "grts_rank_haspengouw": null, "area_m2": 50.0, "year": 2014.0, "in_sac": false, "source": "kalktufproject" }, "geometry": { "type": "Point", "coordinates": [ 3.676738, 50.8490249 ] } },
{ "type": "Feature", "properties": { "point_id": 86.0, "name": "Thaborberg", "system_type": "unknown", "code_orig": "7220,gh", "type": "7220", "certain": false, "unit_id": 40.0, "grts_address": 50766457.0, "grts_rank": 41.0, "haspengouw": false, "grts_rank_haspengouw": null, "area_m2": null, "year": null, "in_sac": false, "source": "kalktufproject" }, "geometry": { "type": "Point", "coordinates": [ 4.2805929, 50.8556939 ] } },
{ "type": "Feature", "properties": { "point_id": 93.0, "name": null, "system_type": "unknown", "code_orig": "7220,gh", "type": "7220", "certain": false, "unit_id": 45.0, "grts_address": 50840089.0, "grts_rank": 42.0, "haspengouw": false, "grts_rank_haspengouw": null, "area_m2": null, "year": null, "in_sac": false, "source": "habkaart" }, "geometry": { "type": "Point", "coordinates": [ 3.5632762, 50.7717109 ] } },
{ "type": "Feature", "properties": { "point_id": 96.0, "name": null, "system_type": "unknown", "code_orig": "7220,gh", "type": "7220", "certain": false, "unit_id": 48.0, "grts_address": 52711737.0, "grts_rank": 43.0, "haspengouw": false, "grts_rank_haspengouw": null, "area_m2": null, "year": null, "in_sac": false, "source": "habkaart" }, "geometry": { "type": "Point", "coordinates": [ 4.0885062, 50.7200706 ] } },
{ "type": "Feature", "properties": { "point_id": 18.0, "name": "Meldertbos 2", "system_type": "rivulet", "code_orig": "7220", "type": "7220", "certain": true, "unit_id": 9.0, "grts_address": 52822854.0, "grts_rank": 44.0, "haspengouw": false, "grts_rank_haspengouw": null, "area_m2": 10.0, "year": 2014.0, "in_sac": true, "source": "kalktufproject" }, "geometry": { "type": "Point", "coordinates": [ 4.8322798, 50.7810332 ] } },
{ "type": "Feature", "properties": { "point_id": 1.0, "name": "Steenputbeek 2", "system_type": "rivulet", "code_orig": "7220", "type": "7220", "certain": true, "unit_id": 1.0, "grts_address": 53548217.0, "grts_rank": 45.0, "haspengouw": false, "grts_rank_haspengouw": null, "area_m2": 50.0, "year": 2014.0, "in_sac": true, "source": "kalktufproject" }, "geometry": { "type": "Point", "coordinates": [ 4.2756496, 50.7077746 ] } },
{ "type": "Feature", "properties": { "point_id": 2.0, "name": "Steenputbeek 1", "system_type": "rivulet", "code_orig": "7220", "type": "7220", "certain": true, "unit_id": 1.0, "grts_address": 53548217.0, "grts_rank": 45.0, "haspengouw": false, "grts_rank_haspengouw": null, "area_m2": 20.0, "year": 2014.0, "in_sac": true, "source": "kalktufproject" }, "geometry": { "type": "Point", "coordinates": [ 4.278431, 50.7137719 ] } },
{ "type": "Feature", "properties": { "point_id": 88.0, "name": "Kesterheide-Lombergbos", "system_type": "unknown", "code_orig": "7220,gh", "type": "7220", "certain": false, "unit_id": 42.0, "grts_address": 55726905.0, "grts_rank": 46.0, "haspengouw": false, "grts_rank_haspengouw": null, "area_m2": null, "year": null, "in_sac": true, "source": "kalktufproject" }, "geometry": { "type": "Point", "coordinates": [ 4.1110098, 50.7839014 ] } },
{ "type": "Feature", "properties": { "point_id": 37.0, "name": "Bruulbos", "system_type": "unknown", "code_orig": "7220,gh", "type": "7220", "certain": false, "unit_id": 37.0, "grts_address": 57017734.0, "grts_rank": 47.0, "haspengouw": false, "grts_rank_haspengouw": null, "area_m2": null, "year": null, "in_sac": true, "source": "inbo" }, "geometry": { "type": "Point", "coordinates": [ 4.7979974, 50.8493975 ] } },
{ "type": "Feature", "properties": { "point_id": 40.0, "name": "Enamebos", "system_type": "mire", "code_orig": "7220", "type": "7220", "certain": true, "unit_id": 18.0, "grts_address": 59589785.0, "grts_rank": 48.0, "haspengouw": false, "grts_rank_haspengouw": null, "area_m2": 300.0, "year": 2014.0, "in_sac": true, "source": "kalktufproject" }, "geometry": { "type": "Point", "coordinates": [ 3.6494108, 50.8537526 ] } },
{ "type": "Feature", "properties": { "point_id": 87.0, "name": "Neerheide", "system_type": "unknown", "code_orig": "7220,gh", "type": "7220", "certain": false, "unit_id": 41.0, "grts_address": 60159609.0, "grts_rank": 49.0, "haspengouw": false, "grts_rank_haspengouw": null, "area_m2": null, "year": null, "in_sac": false, "source": "kalktufproject" }, "geometry": { "type": "Point", "coordinates": [ 4.2113554, 50.8906724 ] } },
{ "type": "Feature", "properties": { "point_id": 20.0, "name": "Moen", "system_type": "mire", "code_orig": "7220", "type": "7220", "certain": true, "unit_id": 10.0, "grts_address": 66177569.0, "grts_rank": 50.0, "haspengouw": false, "grts_rank_haspengouw": null, "area_m2": 10.0, "year": 2014.0, "in_sac": true, "source": "kalktufproject" }, "geometry": { "type": "Point", "coordinates": [ 3.3758827, 50.785436 ] } }
]
}
