{
"type": "FeatureCollection",
"name": "points_7220_haspengouw_ranked",
"features": [
{ "type": "Feature", "properties": { "point_id": 71.0, "name": "Molenbeemd", "system_type": "rivulet", "code_orig": "7220", "type": "7220", "certain": true, "unit_id": 26.0, "grts_address": 6560882.0, "grts_rank": 3.0, "haspengouw": true, "grts_rank_haspengouw": 1, "area_m2": 20.0, "year": 2014.0, "in_sac": false, "source": "kalktufproject" }, "geometry": { "type": "Point", "coordinates": [ 5.5163576, 50.8210239 ] } },
{ "type": "Feature", "properties": { "point_id": 58.0, "name": "Hornebeek", "system_type": "rivulet", "code_orig": "7220", "type": "7220", "certain": true, "unit_id": 20.0, "grts_address": 11971110.0, "grts_rank": 7.0, "haspengouw": true, "grts_rank_haspengouw": 2, "area_m2": 100.0, "year": 2014.0, "in_sac": false, "source": "kalktufproject" }, "geometry": { "type": "Point", "coordinates": [ 5.2384528, 50.7216672 ] } },
{ "type": "Feature", "properties": { "point_id": 32.0, "name": "Wijngaardbos 1", "system_type": "rivulet", "code_orig": "7220", "type": "7220", "certain": true, "unit_id": 16.0, "grts_address": 22269042.0, "grts_rank": 12.0, "haspengouw": true, "grts_rank_haspengouw": 3, "area_m2": 200.0, "year": 2014.0, "in_sac": true, "source": "kalktufproject" }, "geometry": { "type": "Point", "coordinates": [ 5.4758737, 50.8171063 ] } },
{ "type": "Feature", "properties": { "point_id": 83.0, "name": "Wijngaardbos 2", "system_type": "rivulet", "code_orig": "7220", "type": "7220", "certain": true, "unit_id": 16.0, "grts_address": 22269042.0, "grts_rank": 12.0, "haspengouw": true, "grts_rank_haspengouw": 3, "area_m2": 100.0, "year": 2014.0, "in_sac": true, "source": "kalktufproject" }, "geometry": { "type": "Point", "coordinates": [ 5.4808115, 50.8167466 ] } },
{ "type": "Feature", "properties": { "point_id": 92.0, "name": "Hoeselt", "system_type": "mire", "code_orig": "7220", "type": "7220", "certain": true, "unit_id": 31.0, "grts_address": 23809138.0, "grts_rank": 14.0, "haspengouw": true, "grts_rank_haspengouw": 4, "area_m2": 100.0, "year": 2017.0, "in_sac": false, "source": "habkaart" }, "geometry": { "type": "Point", "coordinates": [ 5.4775467, 50.8252914 ] } },
{ "type": "Feature", "properties": { "point_id": 101.0, "name": null, "system_type": "unknown", "code_orig": "7220,gh", "type": "7220", "certain": false, "unit_id": 52.0, "grts_address": 26568306.0, "grts_rank": 18.0, "haspengouw": true, "grts_rank_haspengouw": 5, "area_m2": null, "year": null, "in_sac": false, "source": "habkaart" }, "geometry": { "type": "Point", "coordinates": [ 5.4052919, 50.7954385 ] } },
{ "type": "Feature", "properties": { "point_id": 27.0, "name": "Borgloon", "system_type": "rivulet", "code_orig": "7220", "type": "7220", "certain": true, "unit_id": 12.0, "grts_address": 35937906.0, "grts_rank": 27.0, "haspengouw": true, "grts_rank_haspengouw": 6, "area_m2": 50.0, "year": 2014.0, "in_sac": true, "source": "kalktufproject" }, "geometry": { "type": "Point", "coordinates": [ 5.351446, 50.8065654 ] } },
{ "type": "Feature", "properties": { "point_id": 30.0, "name": "Zammelen", "system_type": "mire", "code_orig": "7220", "type": "7220", "certain": true, "unit_id": 14.0, "grts_address": 37852786.0, "grts_rank": 30.0, "haspengouw": true, "grts_rank_haspengouw": 7, "area_m2": 50.0, "year": 2014.0, "in_sac": true, "source": "kalktufproject" }, "geometry": { "type": "Point", "coordinates": [ 5.4040874, 50.8131411 ] } },
{ "type": "Feature", "properties": { "point_id": 28.0, "name": "Grootbos", "system_type": "rivulet", "code_orig": "7220", "type": "7220", "certain": true, "unit_id": 13.0, "grts_address": 44945522.0, "grts_rank": 34.0, "haspengouw": true, "grts_rank_haspengouw": 8, "area_m2": 30.0, "year": 2014.0, "in_sac": true, "source": "kalktufproject" }, "geometry": { "type": "Point", "coordinates": [ 5.54892, 50.8094526 ] } },
{ "type": "Feature", "properties": { "point_id": 23.0, "name": "Haren", "system_type": "rivulet", "code_orig": "7220", "type": "7220", "certain": true, "unit_id": 11.0, "grts_address": 48095858.0, "grts_rank": 37.0, "haspengouw": true, "grts_rank_haspengouw": 9, "area_m2": 10.0, "year": 2014.0, "in_sac": true, "source": "kalktufproject" }, "geometry": { "type": "Point", "coordinates": [ 5.4038378, 50.7914714 ] } }
]
}
